[{"id":"akilli-10130","stopId":"10130","name":"BAŞİSKELE DURAĞI 1","lat":40.7150585,"lng":29.9316066,"ilce":"BAŞİSKELE","mahalle":"Sahil"},{"id":"akilli-10321","stopId":"10321","name":"YUVACIK SAPAĞI 1","lat":40.7230431,"lng":29.9503592,"ilce":"BAŞİSKELE","mahalle":"Yeşilyurt"},{"id":"akilli-10321","stopId":"10321","name":"YUVACIK SAPAĞI 1","lat":40.7230431,"lng":29.9503592,"ilce":"BAŞİSKELE","mahalle":"Yeşilyurt"},{"id":"akilli-10867","stopId":"10867","name":"DERİNCE 44 EVLER 3","lat":40.756579,"lng":29.819012,"ilce":"DERİNCE","mahalle":"Sırrıpaşa"},{"id":"akilli-11290","stopId":"11290","name":"ECE SOKAK","lat":40.786217,"lng":29.97078,"ilce":"İZMİT","mahalle":"Yeşilova"},{"id":"akilli-20074","stopId":"20074","name":"BEŞ YOL 212. SOKAK 1","lat":40.8278675,"lng":29.3821959,"ilce":"ÇAYIROVA","mahalle":"Özgürlük"},{"id":"akilli-20202","stopId":"20202","name":"ÇAYIROVA KÖPRÜSÜ","lat":40.8124455,"lng":29.3687922,"ilce":"ÇAYIROVA","mahalle":"Çayırova"},{"id":"akilli-20219","stopId":"20219","name":"YENİ MAHALLE PASTANE","lat":40.824005,"lng":29.371973,"ilce":"ÇAYIROVA","mahalle":"Yeni"},{"id":"akilli-20227","stopId":"20227","name":"MESCİD-İ AKSA CAMİ","lat":40.829559,"lng":29.3781423,"ilce":"ÇAYIROVA","mahalle":"Atatürk"},{"id":"akilli-20246","stopId":"20246","name":"ÇAYIROVA KAYMAKAMLIK","lat":40.8590028,"lng":29.3905569,"ilce":"ÇAYIROVA","mahalle":"Şekerpınar"},{"id":"akilli-30027","stopId":"30027","name":"FARABİ DEVLET HASTANESİ","lat":40.7726605,"lng":29.407849,"ilce":"DARICA","mahalle":"Fevziçakmak"},{"id":"akilli-30028","stopId":"30028","name":"FARABİ DEVLET HASTANESİ ACİL GİRİŞİ 1","lat":40.77148242,"lng":29.40429457,"ilce":"DARICA","mahalle":"Fevziçakmak"},{"id":"akilli-30029","stopId":"30029","name":"FARABİ DEVLET HASTANESİ ACİL GİRİŞİ","lat":40.7716437,"lng":29.4054842,"ilce":"DARICA","mahalle":"Fevziçakmak"},{"id":"akilli-30052","stopId":"30052","name":"ADNAN MENDERES KÜLTÜR MERKEZİ","lat":40.7774496,"lng":29.4049954,"ilce":"DARICA","mahalle":"Fevziçakmak"},{"id":"akilli-30063","stopId":"30063","name":"İSTASYON KÖPRÜSÜ 1","lat":40.7820346,"lng":29.4112913,"ilce":"DARICA","mahalle":"Abdi İpekçi"},{"id":"akilli-30078","stopId":"30078","name":"CUMHURIYET MEYDANI","lat":40.7624324,"lng":29.38934928,"ilce":"DARICA","mahalle":"Bağlarbaşı"},{"id":"akilli-30084","stopId":"30084","name":"DARICA ZİRAAT BANKASI 1","lat":40.7587924,"lng":29.3837451,"ilce":"DARICA","mahalle":"Cami"},{"id":"akilli-30207","stopId":"30207","name":"ŞEHİT PİYADE ER MURAT ALTAY PARKI 1","lat":40.791057,"lng":29.373814,"ilce":"DARICA","mahalle":"Osmangazi"},{"id":"akilli-30346","stopId":"30346","name":"NENEHATUN MUHTARLIĞI","lat":40.7813167,"lng":29.3849689,"ilce":"DARICA","mahalle":"Nenehatun"},{"id":"akilli-30388","stopId":"30388","name":"MARMARAY TREN İSTASYONU 1","lat":40.78333276,"lng":29.41099041,"ilce":"DARICA","mahalle":"Abdi İpekçi"},{"id":"akilli-40112","stopId":"40112","name":"DERİNCE GEÇİT 1","lat":40.756304,"lng":29.830306,"ilce":"DERİNCE","mahalle":"Çenedağ"},{"id":"akilli-40117","stopId":"40117","name":"DERİNCE 44 EVLER","lat":40.756715,"lng":29.816157,"ilce":"DERİNCE","mahalle":"Sırrıpaşa"},{"id":"akilli-40128","stopId":"40128","name":"DERİNCE GEÇİT 2","lat":40.7558356,"lng":29.8304408,"ilce":"DERİNCE","mahalle":"Deniz"},{"id":"akilli-40214","stopId":"40214","name":"DERİNCE MERKEZ","lat":40.75744244,"lng":29.83107988,"ilce":"DERİNCE","mahalle":"Çenedağ"},{"id":"akilli-41712","stopId":"41712","name":"AKÇAKOCABEY","lat":40.762643,"lng":29.958411,"ilce":"İZMİT","mahalle":"Körfez"},{"id":"akilli-41760","stopId":"41760","name":"GEBZE CENTER AVM","lat":40.796844,"lng":29.442766,"ilce":"GEBZE","mahalle":"Tatlıkuyu"},{"id":"akilli-41945","stopId":"41945","name":"TATLIKUYU KÖPRÜSÜ","lat":40.7947013,"lng":29.4326596,"ilce":"GEBZE","mahalle":"Hacıhalil"},{"id":"akilli-50030","stopId":"50030","name":"DİLOVASI BELEDİYESİ 3","lat":40.7855268,"lng":29.5411492,"ilce":"DİLOVASI","mahalle":"Mimar Sinan"},{"id":"akilli-50053","stopId":"50053","name":"ŞEHİT SEBAHATTİN DÜNDAR ÇEŞMESİ 2","lat":40.787804,"lng":29.53373,"ilce":"DİLOVASI","mahalle":"Mimar Sinan"},{"id":"akilli-50067","stopId":"50067","name":"DİLİSKELESİ MEYDAN 1","lat":40.778965,"lng":29.523218,"ilce":"DİLOVASI","mahalle":"Diliskelesi"},{"id":"akilli-60205","stopId":"60205","name":"FATİH İMAM HATİP ORTAOKULU 1","lat":40.8039793,"lng":29.39055871,"ilce":"GEBZE","mahalle":"Beylikbağı"},{"id":"akilli-60257","stopId":"60257","name":"AHMET PENBEGÜLLÜ KÜLTÜR MERKEZİ","lat":40.798933,"lng":29.4011694,"ilce":"GEBZE","mahalle":"Hürriyet"},{"id":"akilli-60298","stopId":"60298","name":"İBRAHİMAĞA CADDESİ 1","lat":40.8012833,"lng":29.43149,"ilce":"GEBZE","mahalle":"Güzeller"},{"id":"akilli-60371","stopId":"60371","name":"MEVLANA KAPALI PAZAR","lat":40.8124791,"lng":29.4197741,"ilce":"GEBZE","mahalle":"Mevlana"},{"id":"akilli-60372","stopId":"60372","name":"MEVLANA KAPALI PAZAR 1","lat":40.8124504,"lng":29.4203132,"ilce":"GEBZE","mahalle":"Gaziler"},{"id":"akilli-60401","stopId":"60401","name":"AK ÇARŞI","lat":40.79953213,"lng":29.43030172,"ilce":"GEBZE","mahalle":"Mustafapaşa"},{"id":"akilli-60403","stopId":"60403","name":"MUSTAFA PAŞA CAMİ","lat":40.7989143,"lng":29.4291871,"ilce":"GEBZE","mahalle":"Mustafapaşa"},{"id":"akilli-60408","stopId":"60408","name":"İSMETPAŞA CADDESİ","lat":40.7966663,"lng":29.43303,"ilce":"GEBZE","mahalle":"Hacıhalil"},{"id":"akilli-60431","stopId":"60431","name":"FATİH SULTAN MEHMET AKADEMİ LİSE","lat":40.795072,"lng":29.4231906,"ilce":"GEBZE","mahalle":"Osman Yılmaz"},{"id":"akilli-60471","stopId":"60471","name":"İSTASYON CADDESİ","lat":40.7899739,"lng":29.4216289,"ilce":"GEBZE","mahalle":"Osman Yılmaz"},{"id":"akilli-60542","stopId":"60542","name":"MUSTAFA ÜSTÜNDAĞ ORTAOKULU 1","lat":40.8287821,"lng":29.41849934,"ilce":"GEBZE","mahalle":"Yenikent"},{"id":"akilli-60794","stopId":"60794","name":"GEBZE CENTER KÖPRÜSÜ","lat":40.797601,"lng":29.442667,"ilce":"GEBZE","mahalle":"Tatlıkuyu"},{"id":"akilli-60813","stopId":"60813","name":"2744. SOKAK 1","lat":40.8241145,"lng":29.464813,"ilce":"GEBZE","mahalle":"Kirazpınar"},{"id":"akilli-60863","stopId":"60863","name":"EMLAK KONUT","lat":40.8261482,"lng":29.4773381,"ilce":"GEBZE","mahalle":"Kirazpınar"},{"id":"akilli-70163","stopId":"70163","name":"DONANMA 1","lat":40.716904,"lng":29.815998,"ilce":"GÖLCÜK","mahalle":"Yeni"},{"id":"akilli-70164","stopId":"70164","name":"PERVANE 1","lat":40.71674,"lng":29.819054,"ilce":"GÖLCÜK","mahalle":"Yeni"},{"id":"akilli-70164","stopId":"70164","name":"PERVANE 1","lat":40.71674,"lng":29.819054,"ilce":"GÖLCÜK","mahalle":"Yeni"},{"id":"akilli-70167","stopId":"70167","name":"GÖLCÜK ESKİ GARAJLAR","lat":40.7165701,"lng":29.8235598,"ilce":"GÖLCÜK","mahalle":"Şehitler"},{"id":"akilli-70168","stopId":"70168","name":"DUMLUPINAR İSKELE YOLU 1","lat":40.7154133,"lng":29.8303136,"ilce":"GÖLCÜK","mahalle":"Şehitler"},{"id":"akilli-70212","stopId":"70212","name":"HALIDERE MERKEZ","lat":40.71612491,"lng":29.75302309,"ilce":"GÖLCÜK","mahalle":"Halıdere Yalı"},{"id":"akilli-70264","stopId":"70264","name":"DEĞİRMENDERE MERKEZ","lat":40.7211178,"lng":29.7824844,"ilce":"GÖLCÜK","mahalle":"Değirmendere Merkez"},{"id":"akilli-70279","stopId":"70279","name":"GÖLCÜK NECATİ ÇELİK DEVLET HASTANESİ 1","lat":40.7180181,"lng":29.7937111,"ilce":"GÖLCÜK","mahalle":"Topçular"},{"id":"akilli-70420","stopId":"70420","name":"GÖLCÜK PERVANE","lat":40.716846,"lng":29.818645,"ilce":"GÖLCÜK","mahalle":"Merkez"},{"id":"akilli-80025","stopId":"80025","name":"EREN CAMİ","lat":40.7649733,"lng":29.9388706,"ilce":"İZMİT","mahalle":"Körfez"},{"id":"akilli-80037","stopId":"80037","name":"İZMİT TREN İSTASYONU","lat":40.7622069,"lng":29.9189969,"ilce":"İZMİT","mahalle":"Kemalpaşa"},{"id":"akilli- ","stopId":" ","name":"YENİ TURAN","lat":40.7651354,"lng":29.9239487,"ilce":"İZMİT"},{"id":"akilli-80041","stopId":"80041","name":"İZMİT LİSESİ","lat":40.76590982,"lng":29.92740267,"ilce":"İZMİT","mahalle":"Ömerağa"},{"id":"akilli-80045","stopId":"80045","name":"ÇINARLI CAMİ","lat":40.766723,"lng":29.9331675,"ilce":"İZMİT","mahalle":"Çukurbağ"},{"id":"akilli-80048","stopId":"80048","name":"KOCAELİ DEVLET HASTANESİ","lat":40.767813,"lng":29.937741,"ilce":"İZMİT","mahalle":"Cedit"},{"id":"akilli-80049","stopId":"80049","name":"MİMAR SİNAN ANADOLU LİSESİ","lat":40.768364,"lng":29.9394802,"ilce":"İZMİT","mahalle":"Cedit"},{"id":"akilli-80057","stopId":"80057","name":"ZİNCİRLİKUYU CAMİ","lat":40.7716551,"lng":29.9493929,"ilce":"İZMİT","mahalle":"45836"},{"id":"akilli-80066","stopId":"80066","name":"KÜTÜPHANE","lat":40.765627,"lng":29.9344691,"ilce":"İZMİT","mahalle":"Karabaş"},{"id":"akilli-80078","stopId":"80078","name":"KURUÇEŞME MERKEZ","lat":40.765381,"lng":29.877556,"ilce":"İZMİT","mahalle":"Doğan"},{"id":"akilli-80129","stopId":"80129","name":"ŞİRİNTEPE ÜST GEÇİT 1","lat":40.7615205,"lng":29.8607742,"ilce":"İZMİT","mahalle":"Şirintepe"},{"id":"akilli-80164","stopId":"80164","name":"İZMİT LİSESİ D 100","lat":40.763842,"lng":29.8909683,"ilce":"İZMİT","mahalle":"Serdar"},{"id":"akilli-80335","stopId":"80335","name":"EMNİYET ASAYİŞ ŞUBE MÜDÜRLÜĞÜ","lat":40.7622214,"lng":29.9363463,"ilce":"İZMİT","mahalle":"Karabaş"},{"id":"akilli-80335","stopId":"80335","name":"EMNİYET ASAYİŞ ŞUBE MÜDÜRLÜĞÜ","lat":40.7622214,"lng":29.9363463,"ilce":"İZMİT","mahalle":"Karabaş"},{"id":"akilli-80336","stopId":"80336","name":"ESNAF KEFALET","lat":40.76183364,"lng":29.93017685,"ilce":"İZMİT","mahalle":"Ömerağa"},{"id":"akilli-80337","stopId":"80337","name":"FEVZİYE KUZEY YAN YOL 1","lat":40.7617012,"lng":29.9234567,"ilce":"İZMİT","mahalle":"Kemalpaşa"},{"id":"akilli-80338","stopId":"80338","name":"FEVZİYE KUZEY YAN YOL","lat":40.7615325,"lng":29.9238063,"ilce":"İZMİT","mahalle":"Kemalpaşa"},{"id":"akilli-80340","stopId":"80340","name":"TURGUT ÖZAL KÖPRÜSÜ D 100","lat":40.7619649,"lng":29.9360791,"ilce":"İZMİT","mahalle":"Karabaş"},{"id":"akilli-80341","stopId":"80341","name":"KOCAELİ VALİLİĞİ","lat":40.7627881,"lng":29.9462155,"ilce":"İZMİT","mahalle":"Körfez"},{"id":"akilli-80344","stopId":"80344","name":"ADNAN MENDERES D 100 1","lat":40.761513,"lng":29.926487,"ilce":"İZMİT","mahalle":"Ömerağa"},{"id":"akilli-80346","stopId":"80346","name":"DOSTLUK SİTESİ","lat":40.76651092,"lng":29.90749297,"ilce":"İZMİT","mahalle":"Zabıtan"},{"id":"akilli-80347","stopId":"80347","name":"YENİDOĞAN D 100","lat":40.7670528,"lng":29.9031065,"ilce":"İZMİT","mahalle":"Yenidoğan"},{"id":"akilli-80348","stopId":"80348","name":"SEKA DEVLET HASTANESİ D 100","lat":40.7657031,"lng":29.8983139,"ilce":"İZMİT","mahalle":"Serdar"},{"id":"akilli-80351","stopId":"80351","name":"KURUÇEŞME IŞIKLAR","lat":40.764091,"lng":29.875057,"ilce":"İZMİT","mahalle":"Doğan"},{"id":"akilli-80352","stopId":"80352","name":"SGK İL MÜDÜRLÜĞÜ D 100","lat":40.7629814,"lng":29.8777459,"ilce":"İZMİT","mahalle":"Yeni"},{"id":"akilli-80353","stopId":"80353","name":"EĞİTİM KAMPÜSÜ 1","lat":40.7637439,"lng":29.8917603,"ilce":"İZMİT","mahalle":"Serdar"},{"id":"akilli-80356","stopId":"80356","name":"SEKA DEVLET HASTANESİ D 100 1","lat":40.766273,"lng":29.900068,"ilce":"İZMİT","mahalle":"Yenidoğan"},{"id":"akilli-80357","stopId":"80357","name":"YENİDOĞAN D 100 1","lat":40.7665931,"lng":29.904174,"ilce":"İZMİT","mahalle":"Yenidoğan"},{"id":"akilli-80359","stopId":"80359","name":"SEKA","lat":40.7651704,"lng":29.9112439,"ilce":"İZMİT","mahalle":"Kozluk"},{"id":"akilli-80361","stopId":"80361","name":"YENİ CUMA DOĞU","lat":40.761527,"lng":29.9322986,"ilce":"İZMİT","mahalle":"Karabaş"},{"id":"akilli-80361","stopId":"80361","name":"YENİ CUMA DOĞU","lat":40.761527,"lng":29.9322986,"ilce":"İZMİT","mahalle":"Karabaş"},{"id":"akilli-80362","stopId":"80362","name":"ADNAN MENDERES D 100","lat":40.7612467,"lng":29.9257697,"ilce":"İZMİT","mahalle":"Tepecik"},{"id":"akilli-80363","stopId":"80363","name":"VALİLİK D 100","lat":40.762277,"lng":29.945608,"ilce":"İZMİT","mahalle":"Körfez"},{"id":"akilli-80370","stopId":"80370","name":"ADNAN MENDERES GÜNEY YANYOL","lat":40.760838,"lng":29.924423,"ilce":"İZMİT","mahalle":"Kemalpaşa"},{"id":"akilli-80371","stopId":"80371","name":"MİMAR SİNAN GÜNEY YANYOL","lat":40.760964,"lng":29.931273,"ilce":"İZMİT","mahalle":"Ömerağa"},{"id":"akilli-80371","stopId":"80371","name":"MİMAR SİNAN GÜNEY YANYOL","lat":40.760964,"lng":29.931273,"ilce":"İZMİT","mahalle":"Ömerağa"},{"id":"akilli-80372","stopId":"80372","name":"İZMİT MİLLET BAHÇESİ","lat":40.7612428,"lng":29.9374157,"ilce":"İZMİT","mahalle":"Karabaş"},{"id":"akilli-80374","stopId":"80374","name":"SADIK AHMET ÜST GEÇİDİ 1","lat":40.755127,"lng":29.94712,"ilce":"İZMİT","mahalle":"Sanayi"},{"id":"akilli-80388","stopId":"80388","name":"SADIK AHMET ÜST GEÇİDİ","lat":40.756036,"lng":29.946358,"ilce":"İZMİT","mahalle":"Sanayi"},{"id":"akilli-80398","stopId":"80398","name":"LEYLA ATAKAN CADDESİ","lat":40.763547,"lng":29.9348,"ilce":"İZMİT","mahalle":"Karabaş"},{"id":"akilli-80525","stopId":"80525","name":"KANDIRA SAPAĞI 1","lat":40.7623359,"lng":29.9551792,"ilce":"İZMİT","mahalle":"Körfez"},{"id":"akilli-80528","stopId":"80528","name":"YAHYA KAPTAN GÜNEY YANYOL","lat":40.7600823,"lng":29.9756581,"ilce":"İZMİT","mahalle":"Ovacık"},{"id":"akilli-80528","stopId":"80528","name":"YAHYA KAPTAN GÜNEY YANYOL","lat":40.7600823,"lng":29.9756581,"ilce":"İZMİT","mahalle":"Ovacık"},{"id":"akilli-80572","stopId":"80572","name":"YAHYA KAPTAN 5","lat":40.763363,"lng":29.971843,"ilce":"İZMİT","mahalle":"Yahyakaptan"},{"id":"akilli-80624","stopId":"80624","name":"İZMİT OTOGAR 2","lat":40.775292,"lng":29.972487,"ilce":"İZMİT","mahalle":"Yahyakaptan"},{"id":"akilli-80651","stopId":"80651","name":"BAYINDIRLIK İŞ MERKEZİ","lat":40.801357,"lng":29.974152,"ilce":"İZMİT","mahalle":"Tepeköy"},{"id":"akilli-80868","stopId":"80868","name":"SEKA CAMİ","lat":40.763582,"lng":29.913451,"ilce":"İZMİT","mahalle":"Kozluk"},{"id":"akilli-90028","stopId":"90028","name":"AKÇAKOCA İLKOKULU","lat":41.068511,"lng":30.153206,"ilce":"KANDIRA","mahalle":"Akdurak"},{"id":"akilli-90028","stopId":"90028","name":"AKÇAKOCA İLKOKULU","lat":41.068511,"lng":30.153206,"ilce":"KANDIRA","mahalle":"Akdurak"},{"id":"akilli-94164","stopId":"94164","name":"KARAMÜRSEL İMAM HATİP ORTAOKULU","lat":40.691974,"lng":29.618831,"ilce":"KARAMÜRSEL","mahalle":"45842"},{"id":"akilli-96275","stopId":"96275","name":"KARTEPE İSTASYON 1","lat":40.75326,"lng":30.022679,"ilce":"KARTEPE","mahalle":"İstasyon"},{"id":"akilli-96285","stopId":"96285","name":"ÇELİK HALAT ÜST GEÇİDİ","lat":40.7507906,"lng":30.0426209,"ilce":"KARTEPE","mahalle":"Ertuğrul Gazi"},{"id":"akilli-96577","stopId":"96577","name":"KARTEPE İSTASYON","lat":40.753704,"lng":30.022463,"ilce":"KARTEPE","mahalle":"Dumlupınar"},{"id":"akilli-98025","stopId":"98025","name":"TÜTÜNÇİFTLİK MERKEZ 3","lat":40.760823,"lng":29.787205,"ilce":"KÖRFEZ","mahalle":"Güney"},{"id":"akilli-98027","stopId":"98027","name":"95 EVLER","lat":40.75826,"lng":29.7944693,"ilce":"KÖRFEZ","mahalle":"Fatih"},{"id":"akilli-98028","stopId":"98028","name":"KÖRFEZ KAYMAKAMLIK","lat":40.7696996,"lng":29.7647399,"ilce":"KÖRFEZ","mahalle":"Mimar Sinan"},{"id":"akilli-98036","stopId":"98036","name":"TÜTÜNÇİFTLİK MERKEZ","lat":40.762181,"lng":29.785038,"ilce":"KÖRFEZ","mahalle":"Yeniyalı"},{"id":"akilli-98039","stopId":"98039","name":"KÖRFEZ DIŞ HASTANESİ 1","lat":40.7660788,"lng":29.7752532,"ilce":"KÖRFEZ","mahalle":"Yeniyalı"},{"id":"akilli-98278","stopId":"98278","name":"KÖRFEZ DİŞ HASTANESİ","lat":40.765653,"lng":29.775072,"ilce":"KÖRFEZ","mahalle":"Barbaros"},{"id":"akilli-98278","stopId":"98278","name":"KÖRFEZ DİŞ HASTANESİ","lat":40.765653,"lng":29.775072,"ilce":"KÖRFEZ","mahalle":"Barbaros"},{"id":"akilli-98293","stopId":"98293","name":"KÖRFEZ BELEDİYESİ","lat":40.7734687,"lng":29.7442871,"ilce":"KÖRFEZ","mahalle":"Mimar Sinan"}]